City_ID,City,Lat,Lng,Max Temp,Humidity,Cloudiness,Wind Speed,Country,Date
0,kudahuvadhoo,2.6708,72.8944,27.84,73,100,1.81,MV,1680052242
1,bethel,41.3712,-73.414,7.58,55,0,0.0,US,1680052242
2,mulege,26.8833,-111.9833,21.35,28,0,2.38,MX,1680052242
3,albany,42.6001,-73.9662,4.96,67,6,3.24,US,1680051995
4,punta arenas,-53.15,-70.9167,2.84,80,20,4.12,CL,1680052068
5,calabozo,8.9242,-67.4293,29.91,32,37,2.67,VE,1680052242
6,busselton,-33.65,115.3333,18.0,57,17,6.14,AU,1680052212
7,zhanakorgan,43.9098,67.2495,15.67,36,100,4.25,KZ,1680052243
8,klaksvik,62.2266,-6.589,4.51,71,100,13.06,FO,1680052166
9,east london,-33.0153,27.9116,18.25,72,46,10.14,ZA,1680052193
10,baykit,61.67,96.37,-8.58,95,100,1.24,RU,1680052074
11,ancud,-41.8697,-73.8203,8.13,67,42,4.38,CL,1680052241
12,maragogi,-9.0122,-35.2225,25.85,81,3,3.42,BR,1680052163
13,ouargaye,11.5033,0.0572,29.75,42,9,1.38,BF,1680052244
14,novyy urgal,51.0736,132.5642,4.0,52,100,3.45,RU,1680052244
15,alta floresta,-9.8756,-56.0861,22.04,95,100,0.96,BR,1680052244
16,jiazi,22.8779,116.067,18.28,80,99,6.75,CN,1680052244
17,rikitea,-23.1203,-134.9692,26.69,76,86,4.92,PF,1680052166
18,puerto ayora,-0.7393,-90.3518,26.97,91,72,1.79,EC,1680052244
19,vaini,-21.2,-175.2,29.09,84,40,3.6,TO,1680052245
20,boyolangu,-8.1181,111.8935,27.2,78,95,0.46,ID,1680052245
21,faanui,-16.4833,-151.75,27.97,75,21,3.94,PF,1680052173
22,storforshei,66.4043,14.5233,-17.12,77,4,1.03,NO,1680052245
23,avarua,-21.2078,-159.775,26.03,89,75,3.6,CK,1680052245
24,pevek,69.7008,170.3133,-11.16,78,18,8.3,RU,1680052245
25,celestun,20.8667,-90.4,25.87,83,6,7.53,MX,1680052245
26,tilichiki,60.4667,166.1,-6.17,77,5,5.92,RU,1680052246
27,kruisfontein,-34.0033,24.7314,17.16,85,13,7.19,ZA,1680052246
28,nantucket,41.2835,-70.0995,4.06,86,100,2.06,US,1680052163
29,san patricio,28.017,-97.5169,22.13,49,100,6.8,US,1680052246
30,hambantota,6.1241,81.1185,24.94,78,52,2.17,LK,1680052246
31,butaritari,3.0707,172.7902,27.29,81,41,5.99,KI,1680052246
32,faya,18.3851,42.4509,12.29,48,25,1.47,SA,1680052196
33,kidal,18.4411,1.4078,24.38,7,1,4.93,ML,1680052246
34,ushuaia,-54.8,-68.3,1.81,80,75,7.2,AR,1680052246
35,coihaique,-45.5752,-72.0662,2.34,93,75,1.03,CL,1680052247
36,petatlan,17.5167,-101.2667,28.89,61,0,0.98,MX,1680052247
37,mataura,-46.1927,168.8643,11.38,56,84,2.2,NZ,1680052162
38,namatanai,-3.6667,152.4333,29.51,68,75,0.18,PG,1680052247
39,hilo,19.7297,-155.09,26.64,82,100,6.69,US,1680051964
40,kodiak,57.79,-152.4072,7.73,53,75,4.12,US,1680052197
41,coolum beach,-26.5333,153.1,27.84,78,100,3.2,AU,1680052247
42,cortona,43.2745,11.9871,4.63,68,21,0.76,IT,1680052247
43,longyearbyen,78.2186,15.6401,-14.09,72,75,4.12,SJ,1680052190
44,nome,64.5011,-165.4064,-7.72,93,100,7.2,US,1680052032
45,tuktoyaktuk,69.4541,-133.0374,-12.88,82,100,8.1,CA,1680052248
46,sitka,57.0531,-135.33,5.94,70,100,7.72,US,1680052032
47,yerofey pavlovich,53.9667,121.9667,-1.71,67,100,5.53,RU,1680052248
48,zyryanovsk,49.7386,84.2719,0.59,95,100,0.21,KZ,1680052248
49,port lincoln,-34.7333,135.8667,18.41,66,61,6.11,AU,1680052201
50,castro,-24.7911,-50.0119,17.1,96,24,1.82,BR,1680052174
51,hithadhoo,-0.6,73.0833,28.09,74,54,2.62,MV,1680052248
52,chuy,-33.6971,-53.4616,20.38,84,0,5.16,UY,1680052248
53,bluff,-46.6,168.3333,11.56,59,81,6.03,NZ,1680052167
54,zhoucun,36.8167,117.8167,18.99,29,5,4.58,CN,1680052249
55,victoria,22.2855,114.1577,20.21,91,100,6.71,HK,1680052153
56,bambous virieux,-20.3428,57.7575,23.45,80,21,2.88,MU,1680052249
57,constitucion,-35.3333,-72.4167,13.22,86,73,5.93,CL,1680052249
58,hermanus,-34.4187,19.2345,14.89,71,100,3.27,ZA,1680052165
59,carutapera,-1.195,-46.02,24.14,92,100,2.03,BR,1680052201
60,lusambo,-4.9667,23.45,21.13,91,99,0.83,CD,1680052249
61,kysyl-syr,63.8986,122.7617,-16.36,85,39,3.58,RU,1680052250
62,port elizabeth,-33.918,25.5701,18.39,80,68,4.47,ZA,1680052250
63,labuan,5.2767,115.2417,26.33,83,74,2.65,MY,1680052139
64,broome,42.2506,-75.833,3.21,74,0,1.54,US,1680052250
65,lukashin,40.1758,44.0186,15.51,43,4,2.02,AM,1680052250
66,tuatapere,-46.1333,167.6833,11.79,50,14,4.47,NZ,1680052250
67,saint-augustin,51.226,-58.6502,0.23,97,100,0.94,CA,1680052250
68,yellowknife,62.456,-114.3525,-6.79,96,100,2.33,CA,1680052173
69,chkalovskoye,44.8392,133.0436,9.33,37,0,6.2,RU,1680052251
70,esperance,-33.8667,121.9,18.05,67,34,2.68,AU,1680052225
71,puerto ayacucho,5.6639,-67.6236,27.11,66,99,2.58,VE,1680052251
72,yulara,-25.2406,130.9889,25.29,48,91,6.9,AU,1680052251
73,srednekolymsk,67.45,153.6833,-8.97,79,100,5.6,RU,1680052251
74,burnie,-41.0667,145.9167,16.64,89,100,4.35,AU,1680052251
75,togur,58.3631,82.8265,3.51,81,81,7.07,RU,1680052213
76,pyapon,16.2833,95.6833,25.85,67,55,2.65,MM,1680052251
77,ribeira grande,38.5167,-28.7,13.21,84,13,4.92,PT,1680052252
78,north bend,43.4065,-124.2243,12.36,71,75,5.14,US,1680052153
79,tiksi,71.6872,128.8694,-23.42,89,97,4.57,RU,1680052252
80,vao,-22.6667,167.4833,24.84,79,62,7.71,NC,1680052252
81,tepexpan,18.7458,-97.1544,15.03,84,94,2.8,MX,1680052252
82,tasiilaq,65.6145,-37.6368,-13.91,65,0,2.97,GL,1680052252
83,vila velha,-20.3297,-40.2925,27.19,82,100,1.54,BR,1680052252
84,dwarka,22.2394,68.9678,23.25,72,0,2.97,IN,1680052253
85,lompoc,34.6391,-120.4579,14.88,80,100,11.62,US,1680052253
86,jamestown,42.097,-79.2353,3.9,66,0,1.54,US,1680052163
87,olinda,-8.0089,-34.8553,27.85,74,75,6.69,BR,1680052021
88,thompson,55.7435,-97.8558,-13.72,89,100,4.09,CA,1680052253
89,luzhou,28.8724,105.4405,13.08,93,100,1.42,CN,1680052253
90,taloqan,36.7361,69.5345,15.36,44,100,0.86,AF,1680052253
91,meiktila,20.8667,95.8667,26.5,38,3,0.23,MM,1680052253
92,carnarvon,-24.8667,113.6333,24.8,70,92,2.65,AU,1680052211
93,hami,42.8,93.45,13.52,14,1,1.89,CN,1680052254
94,hamilton,39.1834,-84.5333,6.29,80,20,0.0,US,1680052043
95,flinders,-34.5833,150.8552,23.43,83,100,1.79,AU,1680052254
96,georgetown,5.4112,100.3354,27.96,89,20,0.51,MY,1680051960
97,talcahuano,-36.7167,-73.1167,12.82,76,0,2.57,CL,1680052254
98,barhiya,25.2833,86.0333,23.78,28,1,1.21,IN,1680052254
99,keti bandar,24.1447,67.4497,23.7,81,68,5.03,PK,1680052255
100,dudinka,69.4058,86.1778,-30.16,100,100,1.99,RU,1680052255
101,amsterdam,52.374,4.8897,7.12,85,75,5.66,NL,1680051832
102,arraial do cabo,-22.9661,-42.0278,24.92,80,100,3.57,BR,1680052255
103,port hedland,-20.3167,118.5667,29.03,74,100,3.6,AU,1680052255
104,sechura,-5.5569,-80.8222,27.19,76,100,4.29,PE,1680052255
105,atuona,-9.8,-139.0333,27.09,78,23,5.83,PF,1680052255
106,cape town,-33.9258,18.4232,16.18,67,99,1.79,ZA,1680052255
107,asau,46.4333,26.4,-0.4,86,73,1.33,RO,1680052255
108,kutulik,53.3508,102.7839,1.28,98,100,3.12,RU,1680052255
109,santa fe,-31.6333,-60.7,25.01,80,2,0.89,AR,1680052256
110,richards bay,-28.783,32.0377,19.14,72,0,5.87,ZA,1680052213
111,sioux lookout,50.1001,-91.917,-12.26,95,100,0.98,CA,1680052256
112,bredasdorp,-34.5322,20.0403,15.52,65,89,4.27,ZA,1680052256
113,coquimbo,-29.9533,-71.3436,18.78,77,0,1.9,CL,1680051720
114,rocha,-34.4833,-54.3333,17.14,85,0,3.34,UY,1680052256
115,marathon,44.9,-89.7668,2.58,48,100,3.09,US,1680052256
116,mar del plata,-38.0023,-57.5575,25.05,73,0,5.14,AR,1680052036
117,cayenne,4.9333,-52.3333,23.02,94,100,3.09,GF,1680052257
118,provideniya,64.3833,-173.3,-2.94,86,100,11.18,RU,1680052257
119,mananara,-16.1667,49.7667,24.04,92,100,1.81,MG,1680052257
120,torbay,47.6666,-52.7314,0.16,90,100,4.02,CA,1680052257
121,naryan-mar,67.6713,53.087,-9.1,84,52,5.54,RU,1680052257
122,aguimes,27.9054,-15.4461,20.37,56,0,7.2,ES,1680052087
123,kuytun,54.3419,101.5036,2.01,93,100,3.19,RU,1680052258
124,nanortalik,60.1432,-45.2371,-3.3,84,40,1.34,GL,1680052258
125,mongoumba,3.6415,18.5936,21.97,97,100,1.29,CF,1680052258
126,nhulunbuy,-12.2333,136.7667,27.34,83,75,8.75,AU,1680052258
127,shache,38.4167,77.2406,10.95,18,16,2.13,CN,1680052258
128,nouadhibou,20.931,-17.0347,18.99,82,1,6.17,MR,1680052259
129,oussouye,12.485,-16.5469,23.55,53,36,2.23,SN,1680052259
130,dikson,73.5069,80.5464,-25.03,96,100,5.26,RU,1680052259
131,peci,44.6272,16.7861,0.35,68,25,1.87,BA,1680052259
132,les cayes,18.2,-73.75,23.82,77,0,2.41,HT,1680052259
133,chokurdakh,70.6333,147.9167,-20.42,93,82,6.48,RU,1680052259
134,new norfolk,-42.7826,147.0587,18.29,62,75,0.64,AU,1680052259
135,moore,35.3395,-97.4867,11.08,45,0,3.09,US,1680052080
136,santiago,-33.4569,-70.6483,22.53,42,0,5.66,CL,1680051928
137,oistins,13.0667,-59.5333,26.05,65,20,8.23,BB,1680052260
138,bubaque,11.2833,-15.8333,25.9,69,100,5.54,GW,1680052260
139,sturgeon falls,46.3646,-79.9326,-0.06,91,82,2.95,CA,1680052260
140,haines junction,60.7522,-137.5108,1.72,80,100,0.94,CA,1680052260
141,port alfred,-33.5906,26.891,16.21,81,8,1.79,ZA,1680052260
142,saint-philippe,-21.3585,55.7679,23.77,68,87,1.87,RE,1680052261
143,bowen,-20.0167,148.2333,27.12,73,40,3.77,AU,1680052261
144,narsaq,60.9167,-46.05,-0.88,68,17,4.5,GL,1680052261
145,bara,10.3744,10.7288,23.56,15,100,3.58,NG,1680052261
146,illela,13.7292,5.2975,26.59,13,100,4.92,NG,1680052261
147,halifax,44.6453,-63.5724,1.95,69,16,2.68,CA,1680052137
148,quatre cocos,-20.2078,57.7625,23.38,82,29,3.16,MU,1680052184
149,tura,25.5198,90.2201,21.37,64,99,1.98,IN,1680052199
150,suba,10.8438,121.0102,27.36,80,100,8.29,PH,1680052263
151,talnakh,69.4865,88.3972,-27.47,98,89,2.9,RU,1680052263
152,husavik,66.0449,-17.3389,-6.36,86,100,4.81,IS,1680052265
153,nikolskoye,59.7035,30.7861,-0.68,97,100,3.11,RU,1680052176
154,marsh harbour,26.5412,-77.0636,24.65,71,1,0.76,BS,1680052265
155,comodoro rivadavia,-45.8667,-67.5,8.92,57,0,10.8,AR,1680052266
156,paamiut,61.994,-49.6678,-11.13,71,31,3.93,GL,1680052266
157,hobart,-42.8794,147.3294,17.92,87,75,1.03,AU,1680051679
158,tosya,41.0155,34.0401,2.36,93,100,1.44,TR,1680052266
159,sao filipe,14.8961,-24.4956,24.38,70,0,5.0,CV,1680052267
160,samarai,-10.6167,150.6667,29.23,68,3,4.76,PG,1680052267
161,vanimo,-2.6741,141.3028,29.66,65,92,1.45,PG,1680052268
162,ellensburg,46.9965,-120.5479,10.43,47,100,7.72,US,1680052121
163,guerrero negro,27.9769,-114.0611,16.91,51,0,8.87,MX,1680051977
164,lagoa,39.05,-27.9833,13.78,79,0,14.89,PT,1680052269
165,hualmay,-11.0964,-77.6139,24.7,75,100,3.95,PE,1680052269
166,mahebourg,-20.4081,57.7,23.47,79,19,2.56,MU,1680052270
167,henties bay,-22.116,14.2845,16.54,93,0,2.02,NA,1680052270
168,puerto madryn,-42.7692,-65.0385,19.7,23,81,10.07,AR,1680052267
169,umm kaddadah,13.6017,26.6876,21.51,12,32,5.66,SD,1680052270
170,khatanga,71.9667,102.5,-21.63,96,100,5.83,RU,1680052271
171,esso,55.9333,158.7,-6.12,74,100,2.2,RU,1680052271
172,upernavik,72.7868,-56.1549,-28.9,92,7,2.43,GL,1680052271
173,betsiamites,48.9413,-68.646,0.05,95,39,2.67,CA,1680052272
174,shimoda,34.6667,138.95,13.95,66,16,4.68,JP,1680052272
175,kapaa,22.0752,-159.319,26.18,77,100,5.66,US,1680052168
176,caravelas,-17.7125,-39.2481,24.14,81,0,2.27,BR,1680052273
177,gobabis,-22.45,18.9667,18.56,77,10,4.15,NA,1680052273
178,lebu,-37.6167,-73.65,11.58,79,4,1.28,CL,1680052274
179,novikovo,51.1537,37.8879,8.07,93,100,5.92,RU,1680052274
180,marks,51.7111,46.7486,7.51,72,100,4.53,RU,1680052274
181,marzuq,14.4,46.4667,23.29,64,100,0.44,YE,1680052275
182,mandalgovi,45.7625,106.2708,5.56,25,0,2.1,MN,1680052275
183,takoradi,4.8845,-1.7554,26.86,85,8,3.13,GH,1680052275
184,rio gallegos,-51.6226,-69.2181,1.03,80,0,5.66,AR,1680052256
185,norman wells,65.282,-126.8329,-2.04,79,86,5.74,CA,1680052276
186,kavieng,-2.5744,150.7967,27.45,76,100,1.63,PG,1680052276
187,yanam,16.7333,82.2167,24.64,85,100,0.46,IN,1680052276
188,warrington,53.3925,-2.5802,10.18,93,0,4.12,GB,1680052272
189,rognan,67.0953,15.3878,-6.92,89,4,3.93,NO,1680052277
190,fairbanks,64.8378,-147.7164,-0.51,63,75,3.6,US,1680052277
191,birjand,32.8663,59.2211,6.26,100,0,2.06,IR,1680052277
192,naifaru,5.4444,73.3657,27.22,75,33,2.29,MV,1680052277
193,ponta delgada,37.7333,-25.6667,16.4,82,20,8.75,PT,1680052187
194,ratnagiri,16.9833,73.3,21.73,79,92,2.55,IN,1680052278
195,severo-kurilsk,50.6789,156.125,-0.12,77,25,5.17,RU,1680052243
196,baturaja,-4.1333,104.1667,24.0,97,100,0.73,ID,1680052279
197,qaanaaq,77.484,-69.3632,-24.91,64,63,2.99,GL,1680052279
198,karasuk,53.7377,78.0403,3.39,85,5,4.05,RU,1680052279
199,touros,-5.1989,-35.4608,25.54,80,96,3.88,BR,1680052280
200,ondoy,11.8192,122.1261,26.75,78,99,4.96,PH,1680052280
201,channel-port aux basques,47.5702,-59.1367,1.4,77,100,3.91,CA,1680052281
202,mount gambier,-37.8333,140.7667,17.25,57,66,3.95,AU,1680052281
203,barrow,71.2906,-156.7887,-13.99,78,100,6.17,US,1680052281
204,mujiayingzi,42.1167,118.7833,12.81,18,0,4.01,CN,1680052282
205,karanja,20.4833,77.4833,24.72,27,98,1.91,IN,1680052282
206,teguldet,57.3064,88.1667,3.29,94,97,5.91,RU,1680052283
207,codrington,-38.2667,141.9667,15.36,70,100,5.31,AU,1680052283
208,pisco,-13.7,-76.2167,24.03,83,0,6.69,PE,1680052283
209,constantine,36.365,6.6147,5.67,65,0,1.54,DZ,1680052284
210,macas,-2.3167,-78.1167,18.79,98,43,1.04,EC,1680052234
211,atasu,48.6814,71.6433,0.53,75,0,2.76,KZ,1680052254
212,renqiu,38.6989,116.0936,16.85,36,0,2.93,CN,1680052285
213,kieta,-6.2167,155.6333,28.62,71,100,0.86,PG,1680052285
214,adrar,20.5022,-10.0711,25.11,10,0,3.76,MR,1680052285
215,karratha,-20.7377,116.8463,27.73,69,100,1.17,AU,1680052285
216,bengkulu,-3.8004,102.2655,25.22,88,100,1.59,ID,1680052195
217,vargem alta,-20.6714,-41.0069,18.52,96,42,1.0,BR,1680052286
218,khandyga,62.6667,135.6,-0.28,98,100,2.9,RU,1680052286
219,porto novo,6.4965,2.6036,27.08,83,100,2.64,BJ,1680052286
220,sahuaripa,29.05,-109.2333,27.93,9,0,5.45,MX,1680052286
221,kirakira,-10.4544,161.9205,28.71,76,100,2.03,SB,1680052286
222,cabo san lucas,22.8909,-109.9124,24.17,49,75,2.57,MX,1680052165
223,letpadan,17.7833,95.75,24.25,69,0,2.95,MM,1680052287
224,leiyang,26.4024,112.8591,12.4,97,100,1.52,CN,1680052287
225,yazd,31.8972,54.3675,14.06,44,0,1.03,IR,1680052255
226,lubaczow,50.157,23.1234,-1.38,71,75,6.26,PL,1680052288
227,raga,8.4596,25.678,25.54,26,75,0.4,SS,1680052207
228,iqaluit,63.7506,-68.5145,-10.17,85,100,2.24,CA,1680052289
229,senador jose porfirio,-2.5908,-51.9542,23.54,97,100,1.49,BR,1680052289
230,ilulissat,69.2167,-51.1,-26.66,91,6,2.43,GL,1680052290
231,tual,-5.6667,132.75,27.32,80,97,5.64,ID,1680052290
232,nioro,13.35,-15.75,27.95,16,44,4.07,GM,1680052290
233,rumphi,-11.0186,33.8575,17.75,99,100,1.21,MW,1680052290
234,bilma,18.6853,12.9164,24.04,16,11,2.11,NE,1680052291
235,saskylakh,71.9167,114.0833,-25.46,95,94,3.53,RU,1680052291
236,aswan,24.0934,32.907,20.42,18,0,4.23,EG,1680052043
237,mapiri,-15.25,-68.1667,20.79,95,100,0.57,BO,1680052291
238,khartoum,15.5518,32.5324,25.01,19,97,5.57,SD,1680052269
239,mirandela,41.4874,-7.187,13.97,65,49,0.3,PT,1680052292
240,abha,18.2164,42.5053,12.14,82,0,0.0,SA,1680052174
241,san jeronimo,-11.9472,-75.2829,9.49,85,99,2.02,PE,1680052292
242,opuwo,-18.0607,13.84,18.77,80,39,1.44,NA,1680052268
243,isabela,6.7085,121.9711,28.03,77,100,0.24,PH,1680052293
244,isangel,-19.55,169.2667,28.08,72,99,3.17,VU,1680052293
245,timra,62.487,17.3257,-10.18,73,5,3.6,SE,1680052293
246,khudumelapye,-23.8833,24.75,16.69,78,0,2.91,BW,1680052294
247,dakar,14.6937,-17.4441,23.49,77,8,6.31,SN,1680052200
248,lata,40.1629,-8.3327,13.93,64,6,0.32,PT,1680052294
249,severnyy,50.677,36.5532,7.02,93,100,4.02,RU,1680052295
250,de panne,51.0792,2.5917,8.43,64,100,4.63,BE,1680052295
251,flagstaff,35.1981,-111.6513,11.81,29,0,5.66,US,1680052268
252,leningradskiy,69.3833,178.4167,-8.3,81,3,3.59,RU,1680052295
253,bafra,41.5678,35.9069,6.5,92,100,4.16,TR,1680052295
254,yairipok,24.6667,94.0667,17.31,66,0,0.23,IN,1680052296
255,arman,59.7,150.1667,-8.32,90,100,2.09,RU,1680052296
256,sompeta,18.9333,84.6,25.62,87,54,4.15,IN,1680052296
257,noumea,-22.2763,166.4572,29.44,99,100,7.36,NC,1680051604
258,bafq,31.6128,55.4107,15.66,48,3,0.9,IR,1680052296
259,saint george,37.1041,-113.5841,19.97,17,0,2.57,US,1680052297
260,taltal,-25.4,-70.4833,20.78,80,8,1.31,CL,1680052297
261,egvekinot,66.3167,-179.1667,-6.66,93,100,2.04,RU,1680052297
262,kyra,49.5776,111.9753,3.78,57,100,1.96,RU,1680052297
263,sambava,-14.2667,50.1667,24.53,88,100,1.92,MG,1680052194
264,chabahar,25.2919,60.643,23.51,63,0,7.69,IR,1680052298
265,vestmanna,62.1564,-7.1664,3.51,75,75,11.83,FO,1680052293
266,beringovskiy,63.05,179.3167,-0.75,98,100,6.29,RU,1680052298
267,meulaboh,4.1363,96.1285,25.16,85,92,1.4,ID,1680052298
268,grindavik,63.8424,-22.4338,1.26,60,100,8.23,IS,1680052299
269,padilla,3.2204,-76.3139,20.7,92,100,1.34,CO,1680052299
270,lazaro cardenas,17.9583,-102.2,25.4,70,0,3.2,MX,1680052181
271,langsa,4.4683,97.9683,24.95,89,8,0.93,ID,1680052299
272,taoudenni,22.6783,-3.9836,30.21,14,43,6.24,ML,1680052299
273,moa,20.6569,-74.9403,24.35,77,1,3.73,CU,1680052299
274,jiaojiang,28.6803,121.4428,13.33,85,100,0.7,CN,1680052300
275,tecoanapa,16.5167,-98.75,26.74,71,0,1.36,MX,1680052300
276,huarmey,-10.0681,-78.1522,25.76,75,100,3.05,PE,1680052300
277,saldanha,-33.0117,17.9442,16.0,73,83,8.18,ZA,1680052300
278,honningsvag,70.9821,25.9704,-3.14,93,100,1.03,NO,1680052300
279,cuenca,-2.8833,-78.9833,14.07,94,75,1.54,EC,1680051483
280,le port,-20.9373,55.2919,24.0,90,50,1.56,RE,1680052300
281,nizhniy kuranakh,58.8353,125.4869,-3.77,95,100,5.19,RU,1680052301
282,vuktyl,63.8567,57.3094,-19.4,100,91,1.86,RU,1680052301
283,souillac,-20.5167,57.5167,24.1,81,22,1.77,MU,1680052301
284,mount pleasant,32.7941,-79.8626,18.5,94,100,0.0,US,1680052132
285,punta alta,-38.8759,-62.0736,20.31,66,100,3.59,AR,1680052302
286,aripuana,-9.1667,-60.6333,23.39,92,100,0.5,BR,1680052302
287,cabedelo,-6.9811,-34.8339,26.37,83,6,4.72,BR,1680052302
288,palmer,42.1584,-72.3287,5.69,72,20,2.06,US,1680052302
289,xinzhou,38.4092,112.7333,13.66,23,0,0.95,CN,1680052302
290,trapani,37.8333,12.6667,8.83,73,0,2.6,IT,1680052302
291,rio grande,-32.035,-52.0986,22.52,81,6,7.52,BR,1680052106
292,alice springs,-23.7,133.8833,25.75,61,100,5.14,AU,1680052303
293,huazhou,21.6333,110.5833,19.32,88,94,2.99,CN,1680052303
294,cartagena,10.3997,-75.5144,26.79,78,0,4.63,CO,1680052116
295,kruje,41.5092,19.7928,-0.99,64,0,1.54,AL,1680052303
296,aklavik,68.2191,-135.0107,-10.75,79,100,7.18,CA,1680052303
297,harper,4.375,-7.7169,26.31,88,2,2.27,LR,1680052303
298,portland,45.5234,-122.6762,8.27,91,100,4.47,US,1680051827
299,honiara,-9.4333,159.95,29.76,73,82,1.7,SB,1680052297
300,nkhata bay,-11.6066,34.2907,21.06,94,100,0.61,MW,1680052304
301,lorengau,-2.0226,147.2712,29.06,69,100,1.57,PG,1680052304
302,zhezkazgan,47.8043,67.7144,5.31,63,0,3.97,KZ,1680052304
303,bandarbeyla,9.4942,50.8122,26.6,80,91,2.35,SO,1680052304
304,shamary,57.3434,58.2199,-4.63,89,7,1.94,RU,1680052304
305,senanga,-16.1167,23.2667,21.22,76,92,2.61,ZM,1680052305
306,villa maria,-32.4075,-63.2402,24.34,76,0,6.07,AR,1680052305
307,payo,-3.7508,103.6372,22.89,99,100,1.16,ID,1680052305
308,redmond,47.674,-122.1215,15.06,36,100,1.34,US,1680052198
309,penzance,50.1186,-5.5371,10.38,96,100,7.79,GB,1680052306
310,pangnirtung,66.1451,-65.7125,-12.27,94,100,0.6,CA,1680052271
311,chapais,49.7834,-74.8492,-10.8,93,56,0.41,CA,1680052306
312,aligudarz,33.4006,49.6949,4.95,84,0,1.53,IR,1680052306
313,jalu,29.0331,21.5482,16.27,46,2,6.48,LY,1680052306
314,fort nelson,58.8053,-122.7002,3.56,90,94,1.39,CA,1680052306
315,xam nua,20.4197,104.0439,20.43,74,25,1.15,LA,1680052307
316,haradok,55.4624,29.9816,-3.55,95,100,7.5,BY,1680052307
317,pringsewu,-5.3582,104.9744,25.45,91,87,0.99,ID,1680052307
318,grand gaube,-20.0064,57.6608,23.54,74,56,0.89,MU,1680052254
319,kautokeino,69.0125,23.0412,-22.89,98,78,1.73,NO,1680052307
320,kigorobya,1.6162,31.3089,18.18,91,83,1.3,UG,1680052307
321,louth,53.3666,-0.0044,8.98,87,100,7.2,GB,1680052307
322,los cordobas,8.894,-76.3546,27.09,81,72,5.16,CO,1680052308
323,sorong,-0.8833,131.25,27.59,75,100,2.08,ID,1680052035
324,vestmannaeyjar,63.4427,-20.2734,2.47,71,100,11.03,IS,1680052222
325,kiunga,-6.1219,141.2906,29.46,67,100,1.4,PG,1680052308
326,mount darwin,-16.7725,31.5838,14.31,98,79,0.61,ZW,1680052308
327,sinnamary,5.3833,-52.95,24.77,87,98,4.58,GF,1680052238
328,margherita,27.2833,95.6833,17.74,89,98,0.97,IN,1680052308
329,ayagoz,47.9714,80.4392,-0.55,83,0,2.52,KZ,1680052308
330,sobolevo,54.4299,31.8996,6.22,93,100,4.22,RU,1680052309
331,dustlik,40.5247,68.0358,17.19,34,100,0.74,UZ,1680052309
332,olafsvik,64.8945,-23.7142,-0.13,60,100,7.05,IS,1680052309
333,sao jose da coroa grande,-8.8978,-35.1478,25.88,82,3,3.48,BR,1680052309
334,buala,-8.145,159.5921,29.61,70,90,1.66,SB,1680052309
335,ngunguru,-35.6167,174.5,17.35,42,5,6.22,NZ,1680052309
336,belyy yar,53.6039,91.3903,1.94,87,54,0.0,RU,1680052309
337,kurush,41.2841,47.8345,1.1,53,0,3.98,RU,1680052309
338,krasnoselkup,65.7,82.4667,-15.89,90,100,4.54,RU,1680052282
339,slonim,53.0867,25.3219,-2.46,74,100,7.26,BY,1680052310
340,sao joao da barra,-21.6403,-41.0511,24.41,83,96,2.75,BR,1680052130
341,wanning,18.8003,110.3967,25.14,85,29,3.87,CN,1680052310
342,rio branco do sul,-25.19,-49.3142,19.56,98,76,1.16,BR,1680052310
343,puerto narino,-3.7703,-70.3831,23.12,93,28,0.61,CO,1680052310
344,waldkirchen,48.7327,13.6008,-0.36,84,100,0.89,DE,1680052310
345,cidreira,-30.1811,-50.2056,23.13,82,0,8.98,BR,1680052207
346,cap malheureux,-19.9842,57.6142,23.59,74,57,0.89,MU,1680052310
347,villa de cura,10.0386,-67.4894,26.36,76,100,1.65,VE,1680052310
348,ahipara,-35.1667,173.1667,17.51,50,28,7.13,NZ,1680052147
349,sistranda,63.7256,8.834,-5.02,63,0,6.62,NO,1680052311
350,newark,40.7357,-74.1724,10.11,47,0,0.0,US,1680051645
351,port hawkesbury,45.6169,-61.3485,0.1,97,100,4.92,CA,1680052311
352,tateyama,34.9833,139.8667,12.51,79,100,5.83,JP,1680052311
353,algeciras,36.1333,-5.4505,15.82,88,20,8.75,ES,1680052311
354,korla,41.7597,86.1469,10.76,23,9,1.24,CN,1680052311
355,seymchan,62.8833,152.4333,-9.74,77,60,3.44,RU,1680052311
356,hasaki,35.7333,140.8333,14.22,79,100,5.79,JP,1680052312
357,masyaf,35.0653,36.3406,11.86,91,38,10.84,SY,1680052147
358,igarka,67.4667,86.5833,-25.17,98,68,2.82,RU,1680052260
359,marck,50.949,1.9433,9.41,85,100,6.28,FR,1680052312
360,ponta do sol,32.6667,-17.1,22.29,25,68,0.69,PT,1680052312
361,bambanglipuro,-7.95,110.2833,27.47,77,36,1.33,ID,1680052313
362,santo antonio do monte,-20.0872,-45.2936,19.06,90,27,2.33,BR,1680052129
363,novouzensk,50.4592,48.1431,7.03,73,100,5.22,RU,1680052313
364,rorvik,64.8621,11.2373,-5.94,53,1,2.57,NO,1680052313
365,tupiza,-21.45,-65.7167,13.16,77,100,2.47,BO,1680052313
366,nemuro,43.3236,145.575,3.16,79,7,5.56,JP,1680052313
367,ladario,-19.0047,-57.6017,26.9,68,67,1.33,BR,1680052022
368,ostrovnoy,68.0531,39.5131,-13.55,98,89,3.05,RU,1680052195
369,gualaquiza,-3.4,-78.55,16.85,98,30,0.82,EC,1680052314
370,conde,-7.2597,-34.9075,25.7,89,20,2.57,BR,1680052170
371,ustka,54.5805,16.8619,-1.86,66,1,3.63,PL,1680052314
372,hornepayne,49.2138,-84.7705,-12.27,97,100,0.89,CA,1680052314
373,prince rupert,54.3161,-130.3201,8.71,59,14,1.64,CA,1680052212
374,praia da vitoria,38.7333,-27.0667,14.31,80,0,10.12,PT,1680052315
375,nisia floresta,-6.0911,-35.2086,25.45,86,72,2.74,BR,1680052114
376,tumaco,1.7986,-78.8156,25.66,84,10,3.03,CO,1680052315
377,vardo,70.3705,31.1107,-2.01,64,75,3.09,NO,1680052315
378,walvis bay,-22.9575,14.5053,16.49,90,0,3.48,NA,1680052315
379,bria,6.5423,21.9863,21.87,83,31,1.94,CF,1680052315
380,myaundzha,63.0494,147.1858,-12.66,86,58,2.24,RU,1680052315
381,santiago del estero,-27.7951,-64.2615,28.08,51,0,5.06,AR,1680052315
382,yarada,17.65,83.2667,26.18,100,40,1.54,IN,1680052315
383,vila franca do campo,37.7167,-25.4333,16.23,83,3,8.99,PT,1680052316
384,kloulklubed,7.0419,134.2556,28.17,68,99,1.08,PW,1680052316
385,inhambane,-23.865,35.3833,20.3,66,0,1.65,MZ,1680052185
386,hue,16.4667,107.6,22.06,88,75,2.57,VN,1680052032
387,lidkoping,58.5052,13.1577,-0.99,92,100,6.06,SE,1680052316
388,eureka,40.8021,-124.1637,9.34,82,100,4.92,US,1680052316
389,banda aceh,5.5577,95.3222,27.1,76,99,0.62,ID,1680052316
390,cockburn town,21.4612,-71.1419,25.15,75,0,9.01,TC,1680052172
391,axim,4.8699,-2.2405,26.68,86,6,2.88,GH,1680052316
392,kaspiyskiy,45.3929,47.3707,8.55,78,1,5.02,RU,1680052317
393,moussoro,13.6408,16.4901,27.08,15,100,6.21,TD,1680052317
394,hobyo,5.3505,48.5268,27.7,66,29,4.43,SO,1680052317
395,sens,48.1667,3.3333,8.53,73,100,3.69,FR,1680052317
396,lumphat,13.4878,106.9816,27.74,61,99,3.09,KH,1680052317
397,kulachi,31.9286,70.4592,20.76,57,100,2.49,PK,1680052317
398,elizabeth city,36.2946,-76.2511,12.23,76,0,3.6,US,1680052317
399,maningrida,-12.0667,134.2667,29.5,61,100,3.52,AU,1680052318
400,coruripe,-10.1256,-36.1756,25.54,82,9,3.79,BR,1680052318
401,evensk,61.95,159.2333,-13.78,89,100,0.98,RU,1680052318
402,merauke,-8.4667,140.3333,28.85,73,100,3.89,ID,1680052318
403,vostok,46.4856,135.8833,5.54,44,10,3.56,RU,1680052318
404,dingle,10.9995,122.6711,28.33,72,100,5.21,PH,1680052318
405,davila,18.4726,120.5763,29.99,66,25,2.69,PH,1680052318
406,luderitz,-26.6481,15.1594,16.06,69,0,6.82,NA,1680052319
407,tommot,58.9564,126.2925,-2.35,95,100,5.19,RU,1680052231
408,imbituba,-28.24,-48.6703,21.53,90,100,5.38,BR,1680052319
409,kaitangata,-46.2817,169.8464,11.17,51,81,3.02,NZ,1680052319
410,tucuman,-26.8241,-65.2226,24.0,83,75,1.54,AR,1680052237
411,ararangua,-28.9347,-49.4858,20.14,92,5,1.9,BR,1680052319
412,vanavara,60.34,102.2797,-8.89,95,100,1.99,RU,1680052319
413,natal,-5.795,-35.2094,25.36,94,40,1.54,BR,1680052204
414,mmathubudukwane,-24.6,26.4333,15.21,78,5,2.56,BW,1680052320
415,balikpapan,-1.2675,116.8289,26.55,89,20,4.12,ID,1680052320
416,guanica,17.9716,-66.908,25.58,64,0,2.91,PR,1680052320
417,olga,43.7444,135.2892,7.68,55,1,2.41,RU,1680052320
418,ossora,59.2353,163.0719,-4.76,72,7,1.35,RU,1680052320
419,dong hoi,17.4833,106.6,22.17,84,100,2.32,VN,1680052320
420,salalah,17.0151,54.0924,28.05,78,75,1.03,OM,1680052320
421,fare,-16.7,-151.0167,27.77,74,50,3.43,PF,1680052320
422,ranau,5.9538,116.6641,24.78,72,100,0.75,MY,1680052321
423,saint-pierre,-21.3393,55.4781,23.82,53,0,3.6,RE,1680052321
424,pinyug,60.251,47.7842,-7.64,92,22,2.59,RU,1680052321
425,chernyshevskiy,63.0128,112.4714,-18.99,92,20,0.58,RU,1680052321
426,moncton,46.1159,-64.8019,-5.1,98,80,0.44,CA,1680052321
427,inirida,3.8653,-67.9239,23.37,94,100,1.57,CO,1680052297
428,tubigan,8.5322,124.3122,27.72,79,100,0.82,PH,1680052322
429,laguna,38.421,-121.4238,10.72,90,75,5.66,US,1680052250
430,terrace,54.5163,-128.6035,11.67,42,10,0.82,CA,1680052044
431,cine,37.6117,28.0614,7.67,91,99,2.91,TR,1680052322
432,ulaangom,49.9811,92.0667,-11.68,88,46,0.84,MN,1680052323
433,champerico,14.3,-91.9167,28.5,68,1,4.54,GT,1680052164
434,copiapo,-27.3667,-70.3333,15.83,65,0,1.07,CL,1680052167
435,nikolayevka,53.1257,47.2041,3.95,91,100,4.15,RU,1680052324
436,norilsk,69.3535,88.2027,-28.29,98,77,2.56,RU,1680052324
437,cruzeiro do sul,-29.5128,-51.9853,23.93,88,5,0.56,BR,1680052325
438,savonlinna,61.8699,28.88,-3.97,93,100,2.57,FI,1680052325
439,nyanguge,-2.55,33.2,20.33,79,100,0.97,TZ,1680052151
440,hervey bay,-25.2986,152.8535,25.94,68,100,4.25,AU,1680052325
441,miri,4.4148,114.0089,26.8,83,86,1.54,MY,1680052326
442,port hardy,50.6996,-127.4199,8.71,55,1,3.13,CA,1680052202
443,port blair,11.6667,92.75,26.37,77,100,1.55,IN,1680052326
444,lima,-12.0432,-77.0282,27.17,67,0,4.12,PE,1680052077
445,rudbar,30.15,62.6,17.17,68,100,2.0,AF,1680052326
446,westport,41.1415,-73.3579,8.44,53,0,2.06,US,1680052125
447,emerald,-23.5333,148.1667,29.08,47,100,1.9,AU,1680052307
448,nuuk,64.1835,-51.7216,-14.52,82,19,3.83,GL,1680052194
449,jinan,36.6683,116.9972,18.24,30,0,4.86,CN,1680052263
450,gat,31.61,34.7642,14.9,69,0,1.74,IL,1680052327
451,cherskiy,68.75,161.3,-8.4,72,100,10.53,RU,1680052327
452,najran,17.4924,44.1277,20.38,41,100,1.61,SA,1680052327
453,san cristobal,7.7669,-72.225,21.1,69,82,0.22,VE,1680052276
454,loa janan,-0.583,117.095,28.3,72,38,0.62,ID,1680052328
455,moranbah,-22.0016,148.0466,29.16,38,96,2.36,AU,1680052328
456,big bend,-26.8167,31.9333,16.42,76,0,1.78,SZ,1680052328
457,ust-kan,50.9276,84.761,0.52,84,6,1.55,RU,1680052329
458,vila,42.0304,-8.1588,12.49,67,100,2.43,PT,1680052289
459,silivri,41.0802,28.226,5.03,97,100,9.48,TR,1680052330
460,yar-sale,66.8333,70.8333,-25.59,100,100,3.02,RU,1680052223
461,salinopolis,-0.6136,-47.3561,25.27,87,100,3.56,BR,1680052331
462,ravar,31.2656,56.8055,14.33,47,0,1.81,IR,1680052331
463,ust-ilimsk,58.0006,102.6619,-2.27,96,100,2.93,RU,1680052331
464,oksfjord,70.2396,22.3479,-3.9,88,18,3.16,NO,1680052331
465,yurimaguas,-5.9,-76.0833,22.84,99,100,0.84,PE,1680052332
466,altay,47.8667,88.1167,3.49,60,7,3.04,CN,1680052332
467,kutum,14.2,24.6667,19.43,17,1,3.66,SD,1680052332
468,garissa,-0.4536,39.6401,26.81,71,69,5.06,KE,1680052332
469,okhotsk,59.3833,143.3,-6.56,89,100,2.86,RU,1680052333
470,leninskoye,41.7589,69.3864,16.31,34,100,2.41,KZ,1680052334
471,kununurra,-15.7667,128.7333,29.99,66,100,2.06,AU,1680052164
472,high level,58.5169,-117.136,-0.32,94,100,1.41,CA,1680052334
473,turayf,31.6725,38.6637,13.51,48,0,3.13,SA,1680052334
474,saltpond,5.2091,-1.0606,26.96,86,8,3.64,GH,1680052335
475,yatou,37.15,122.3833,12.61,56,78,5.51,CN,1680052335
476,jacareacanga,-6.2222,-57.7528,24.02,90,100,0.92,BR,1680052335
477,port shepstone,-30.7414,30.455,22.19,55,100,2.41,ZA,1680052335
478,geraldton,-28.7667,114.6,25.23,69,40,8.75,AU,1680052336
479,koutiala,12.3917,-5.4642,31.32,41,77,4.21,ML,1680052336
480,mogadishu,2.0371,45.3438,27.41,78,35,4.66,SO,1680052336
481,blankenberge,51.3131,3.1323,7.99,66,100,1.34,BE,1680052337
482,yuzhno-kurilsk,44.0306,145.8556,3.26,81,7,4.11,RU,1680052337
483,san policarpo,12.1791,125.5072,26.83,84,100,4.01,PH,1680052256
484,ndende,-2.4008,11.3581,22.76,99,100,0.72,GA,1680052337
485,vila do maio,15.1333,-23.2167,27.44,76,0,6.04,CV,1680052338
486,sao gabriel da cachoeira,-0.1303,-67.0892,22.8,98,96,0.33,BR,1680052309
487,christchurch,-43.5333,172.6333,10.51,72,75,5.14,NZ,1680052227
488,jumla,29.2747,82.1838,4.75,67,4,2.17,NP,1680052338
489,knysna,-34.0363,23.0471,16.66,86,100,4.47,ZA,1680052338
490,le moule,16.3332,-61.3473,23.02,73,0,6.38,GP,1680052339
491,brae,60.3964,-1.353,4.14,72,100,6.26,GB,1680052339
492,nizhniy ingash,56.2,96.53,5.76,74,100,6.55,RU,1680052339
493,along,28.1667,94.7667,15.7,87,100,0.79,IN,1680052296
494,alofi,-19.0595,-169.9187,27.94,83,75,4.63,NU,1680052340
495,save,8.0425,2.486,27.4,70,56,2.14,BJ,1680052340
496,jaciara,-15.9653,-54.9683,23.46,82,14,1.4,BR,1680052317
497,katherine,-14.4667,132.2667,30.18,54,7,2.57,AU,1680052340
498,dharchula,29.85,80.5333,11.8,38,18,3.26,IN,1680052340
499,esmeraldas,-19.7625,-44.3139,25.48,91,17,2.35,BR,1680052341
500,cookeville,36.1628,-85.5016,9.44,57,0,0.0,US,1680052221
501,margate,51.3813,1.3862,9.39,81,100,2.24,GB,1680052341
502,iguape,-24.7081,-47.5553,23.5,83,100,3.35,BR,1680052341
503,eldorado,-23.7869,-54.2836,22.19,91,28,2.09,BR,1680052342
504,thanh hoa,19.8,105.7667,19.49,84,100,1.64,VN,1680052342
505,ozernovskiy,51.5,156.5167,-1.13,79,100,4.67,RU,1680052342
506,marrakesh,31.6315,-8.0083,24.04,31,0,1.54,MA,1680052342
507,lichuan,30.3,108.85,7.73,89,100,0.38,CN,1680052342
508,suifenhe,44.4,131.1667,8.86,29,0,3.79,CN,1680052343
509,kasempa,-13.4584,25.8338,16.82,97,81,2.21,ZM,1680052343
510,santa maria,-29.6842,-53.8069,22.43,52,0,0.95,BR,1680052160
511,ahuimanu,21.4447,-157.8378,28.84,72,40,5.14,US,1680052344
512,saravena,6.9538,-71.8752,25.45,60,100,1.73,CO,1680052344
513,ayan,56.45,138.1667,-4.32,87,99,4.07,RU,1680052344
514,thinadhoo,0.5333,72.9333,27.83,76,5,2.66,MV,1680052344
515,tazovskiy,67.4667,78.7,-20.17,100,100,1.29,RU,1680052344
516,kargasok,59.0556,80.8572,3.56,83,100,7.22,RU,1680052345
517,kavaratti,10.5669,72.642,26.76,73,56,2.17,IN,1680052345
518,naica,27.85,-105.4833,16.32,48,95,6.61,MX,1680052345
519,zyryanka,65.75,150.85,-6.5,72,23,4.08,RU,1680052345
520,praxedis guerrero,31.3667,-106.0167,16.7,26,0,8.71,MX,1680052346
521,northam,51.0333,-4.2167,10.9,96,100,5.77,GB,1680052346
522,khani,41.9563,42.9566,4.76,88,39,1.69,GE,1680052346
523,kropotkin,45.4375,40.5756,9.49,90,100,2.61,RU,1680052347
524,show low,34.2542,-110.0298,14.16,22,0,6.69,US,1680052347
525,havelock,34.8791,-76.9013,13.85,71,100,3.13,US,1680052347
526,tongren,27.7172,109.1853,10.99,94,100,0.51,CN,1680052347
527,djibo,14.1022,-1.6306,28.55,36,56,1.66,BF,1680052348
528,raton,36.9034,-104.4391,8.19,18,0,11.32,US,1680052348
529,torres,-29.3353,-49.7269,22.13,91,0,3.67,BR,1680052173
530,bud,39.447,-86.1758,7.01,53,0,2.53,US,1680052349
531,bereda,43.2686,-7.5406,10.0,83,92,1.49,ES,1680052187
532,mathathane,-22.2687,28.7495,16.52,73,10,2.03,BW,1680052349
533,bangassou,4.7413,22.8184,22.2,82,100,1.02,CF,1680052349
534,abilene,32.4487,-99.7331,13.21,32,75,4.12,US,1680052350
535,marawi,7.9986,124.2928,23.79,86,100,1.4,PH,1680052350
536,kushima,31.4583,131.2333,16.96,51,100,2.08,JP,1680052350
537,herre,59.1,9.5667,0.51,94,100,1.95,NO,1680052350
538,leshukonskoye,64.8989,45.7622,-18.63,100,100,1.29,RU,1680052351
539,pontian kecil,1.4801,103.3899,29.12,88,0,2.26,MY,1680052351
540,khvastovichi,53.4694,35.0941,7.73,77,100,6.28,RU,1680052351
541,mitu,1.1983,-70.1733,22.42,98,87,0.02,CO,1680052352
542,arkhara,49.4212,130.0842,8.7,34,84,6.28,RU,1680052352
543,seoul,37.5683,126.9778,10.66,41,28,0.52,KR,1680052352
544,bor,56.3567,44.0669,1.96,89,100,5.09,RU,1680052352
545,kawalu,-7.3817,108.2082,25.8,85,90,0.89,ID,1680052352
546,tezu,27.9167,96.1667,17.64,77,100,1.5,IN,1680052352
547,hovd,48.0056,91.6419,2.33,32,5,0.5,MN,1680052353
548,leh,34.1667,77.5833,-9.09,80,64,0.8,IN,1680052353
549,pittsfield,42.4501,-73.2454,3.7,73,0,2.57,US,1680052353
550,angoram,-4.0625,144.0661,31.97,58,100,0.55,PG,1680052353
551,warri,5.5167,5.75,24.48,87,100,1.79,NG,1680052354
552,chilca,-12.5211,-76.7372,23.78,81,100,2.67,PE,1680052354
553,poum,-20.2333,164.0167,26.5,76,99,5.03,NC,1680052207
554,kijang,35.2442,129.2139,14.15,47,7,1.77,KR,1680052355
555,slavutych,51.5196,30.7343,-2.48,94,100,9.21,UA,1680052355
556,kimbe,-5.5502,150.1429,31.97,58,2,2.14,PG,1680052356
557,troy,42.6056,-83.1499,7.58,55,0,1.54,US,1680052356
558,shaunavon,49.6501,-108.4181,-8.7,95,88,0.4,CA,1680052256
559,abbeville,50.1,1.8333,10.14,84,100,3.69,FR,1680052358
560,sakakah,29.9697,40.2064,16.94,28,0,2.77,SA,1680052358
561,sal rei,16.1833,-22.9167,23.09,76,6,4.19,CV,1680052318
